{
"type": "FeatureCollection",
"name": "TauXeGeoJSON",
"crs": { "type": "name", "properties": { "name": "urn:ogc:def:crs:OGC:1.3:CRS84" } },
"features": [
{ "type": "Feature", "properties": { "Name": "Công Ty Cổ phần Vận Tải Dịch Vụ Du Lịch Phương Trang\n", "description": null, "timestamp": null, "begin": null, "end": null, "altitudeMode": null, "tessellate": -1, "extrude": 0, "visibility": -1, "drawOrder": null, "icon": null }, "geometry": { "type": "Point", "coordinates": [ 105.780312499485206, 10.044312499324519, 0.0 ] } },
{ "type": "Feature", "properties": { "Name": "Đại Lý Bán Vé Tàu Hỏa Cần Thơ\n", "description": null, "timestamp": null, "begin": null, "end": null, "altitudeMode": null, "tessellate": -1, "extrude": 0, "visibility": -1, "drawOrder": null, "icon": null }, "geometry": { "type": "Point", "coordinates": [ 105.787937499637295, 10.03268749964513, 0.0 ] } },
{ "type": "Feature", "properties": { "Name": "Bến Xe Cần Thơ Mới\n", "description": null, "timestamp": null, "begin": null, "end": null, "altitudeMode": null, "tessellate": -1, "extrude": 0, "visibility": -1, "drawOrder": null, "icon": null }, "geometry": { "type": "Point", "coordinates": [ 105.771812500400699, 10.004187499857251, 0.0 ] } },
{ "type": "Feature", "properties": { "Name": "Nhà xe Thành Bưởi\n", "description": null, "timestamp": null, "begin": null, "end": null, "altitudeMode": null, "tessellate": -1, "extrude": 0, "visibility": -1, "drawOrder": null, "icon": null }, "geometry": { "type": "Point", "coordinates": [ 105.771062500010203, 10.00443750007042, 0.0 ] } },
{ "type": "Feature", "properties": { "Name": "Xe khách An Nhiên Cần Thơ - Đồng Tháp\n", "description": null, "timestamp": null, "begin": null, "end": null, "altitudeMode": null, "tessellate": -1, "extrude": 0, "visibility": -1, "drawOrder": null, "icon": null }, "geometry": { "type": "Point", "coordinates": [ 105.771187499922405, 10.005437499474541, 0.0 ] } },
{ "type": "Feature", "properties": { "Name": "Xe Khách Hùng Cường (Cần Thơ)\n", "description": null, "timestamp": null, "begin": null, "end": null, "altitudeMode": null, "tessellate": -1, "extrude": 0, "visibility": -1, "drawOrder": null, "icon": null }, "geometry": { "type": "Point", "coordinates": [ 105.771062500590105, 10.00556249986321, 0.0 ] } },
{ "type": "Feature", "properties": { "Name": "Tô Châu cần thơ 2\n", "description": null, "timestamp": null, "begin": null, "end": null, "altitudeMode": null, "tessellate": -1, "extrude": 0, "visibility": -1, "drawOrder": null, "icon": null }, "geometry": { "type": "Point", "coordinates": [ 105.775437500023003, 10.05331249984896, 0.0 ] } },
{ "type": "Feature", "properties": { "Name": "Bến Xe Trung Tâm Cần Thơ\n", "description": null, "timestamp": null, "begin": null, "end": null, "altitudeMode": null, "tessellate": -1, "extrude": 0, "visibility": -1, "drawOrder": null, "icon": null }, "geometry": { "type": "Point", "coordinates": [ 105.772437499512293, 10.005562500167761, 0.0 ] } },
{ "type": "Feature", "properties": { "Name": "Bến xe Khách Trung Tâm Thành Phố Cần Thơ\n", "description": null, "timestamp": null, "begin": null, "end": null, "altitudeMode": null, "tessellate": -1, "extrude": 0, "visibility": -1, "drawOrder": null, "icon": null }, "geometry": { "type": "Point", "coordinates": [ 105.762312506051302, 10.02381248904724, 0.0 ] } },
{ "type": "Feature", "properties": { "Name": "Công Ty Xe Khách Chất Lượng Cao Mai Linh Express\n", "description": null, "timestamp": null, "begin": null, "end": null, "altitudeMode": null, "tessellate": -1, "extrude": 0, "visibility": -1, "drawOrder": null, "icon": null }, "geometry": { "type": "Point", "coordinates": [ 105.745312537976204, 10.03831250053152, 0.0 ] } },
{ "type": "Feature", "properties": { "Name": "Dịch Vụ Taxi Green\n", "description": null, "timestamp": null, "begin": null, "end": null, "altitudeMode": null, "tessellate": -1, "extrude": 0, "visibility": -1, "drawOrder": null, "icon": null }, "geometry": { "type": "Point", "coordinates": [ 105.761294156847498, 10.0179403781751, 0.0 ] } },
{ "type": "Feature", "properties": { "Name": "Bến xe Buýt\n", "description": null, "timestamp": null, "begin": null, "end": null, "altitudeMode": null, "tessellate": -1, "extrude": 0, "visibility": -1, "drawOrder": null, "icon": null }, "geometry": { "type": "Point", "coordinates": [ 105.734312499937602, 10.06281250004306, 0.0 ] } },
{ "type": "Feature", "properties": { "Name": "Bến xe Buýt\n", "description": null, "timestamp": null, "begin": null, "end": null, "altitudeMode": null, "tessellate": -1, "extrude": 0, "visibility": -1, "drawOrder": null, "icon": null }, "geometry": { "type": "Point", "coordinates": [ 105.726812500637905, 10.063062500316009, 0.0 ] } },
{ "type": "Feature", "properties": { "Name": "Bến xe Buýt\n", "description": null, "timestamp": null, "begin": null, "end": null, "altitudeMode": null, "tessellate": -1, "extrude": 0, "visibility": -1, "drawOrder": null, "icon": null }, "geometry": { "type": "Point", "coordinates": [ 105.725437699442793, 10.057938244818921, 0.0 ] } },
{ "type": "Feature", "properties": { "Name": "Bến xe Buýt\n", "description": null, "timestamp": null, "begin": null, "end": null, "altitudeMode": null, "tessellate": -1, "extrude": 0, "visibility": -1, "drawOrder": null, "icon": null }, "geometry": { "type": "Point", "coordinates": [ 105.724437500181693, 10.051812499836769, 0.0 ] } },
{ "type": "Feature", "properties": { "Name": "Bến Xe Buýt KDC 515\n", "description": null, "timestamp": null, "begin": null, "end": null, "altitudeMode": null, "tessellate": -1, "extrude": 0, "visibility": -1, "drawOrder": null, "icon": null }, "geometry": { "type": "Point", "coordinates": [ 105.760812500213504, 10.01268750004321, 0.0 ] } },
{ "type": "Feature", "properties": { "Name": "Bến Xe Điện\n", "description": null, "timestamp": null, "begin": null, "end": null, "altitudeMode": null, "tessellate": -1, "extrude": 0, "visibility": -1, "drawOrder": null, "icon": null }, "geometry": { "type": "Point", "coordinates": [ 105.790687499815604, 10.04881249977775, 0.0 ] } },
{ "type": "Feature", "properties": { "Name": "Chành xe sài gòn\n", "description": null, "timestamp": null, "begin": null, "end": null, "altitudeMode": null, "tessellate": -1, "extrude": 0, "visibility": -1, "drawOrder": null, "icon": null }, "geometry": { "type": "Point", "coordinates": [ 105.742070543947705, 9.999820606702578, 0.0 ] } },
{ "type": "Feature", "properties": { "Name": "Kho Hàng Trọng Tấn - Cần Thơ\n", "description": null, "timestamp": null, "begin": null, "end": null, "altitudeMode": null, "tessellate": -1, "extrude": 0, "visibility": -1, "drawOrder": null, "icon": null }, "geometry": { "type": "Point", "coordinates": [ 105.781062500220401, 10.01143750010722, 0.0 ] } },
{ "type": "Feature", "properties": { "Name": "Chành xe tiến phát Cần Thơ\n", "description": null, "timestamp": null, "begin": null, "end": null, "altitudeMode": null, "tessellate": -1, "extrude": 0, "visibility": -1, "drawOrder": null, "icon": null }, "geometry": { "type": "Point", "coordinates": [ 105.777687499938295, 10.014937499726861, 0.0 ] } },
{ "type": "Feature", "properties": { "Name": "Chành vận chuyển hàng từ Cần Thơ lên Sài Gòn\n", "description": null, "timestamp": null, "begin": null, "end": null, "altitudeMode": null, "tessellate": -1, "extrude": 0, "visibility": -1, "drawOrder": null, "icon": null }, "geometry": { "type": "Point", "coordinates": [ 105.759592929200394, 10.0193051555146, 0.0 ] } },
{ "type": "Feature", "properties": { "Name": "Chành Xe Lê Châu\n", "description": null, "timestamp": null, "begin": null, "end": null, "altitudeMode": null, "tessellate": -1, "extrude": 0, "visibility": -1, "drawOrder": null, "icon": null }, "geometry": { "type": "Point", "coordinates": [ 105.760062499843599, 10.024812499641129, 0.0 ] } },
{ "type": "Feature", "properties": { "Name": "Tô Châu Cần Thơ - Vận Chuyển Hàng Nhanh\n", "description": null, "timestamp": null, "begin": null, "end": null, "altitudeMode": null, "tessellate": -1, "extrude": 0, "visibility": -1, "drawOrder": null, "icon": null }, "geometry": { "type": "Point", "coordinates": [ 105.759693083432893, 10.02493563924223, 0.0 ] } },
{ "type": "Feature", "properties": { "Name": "Cửa Hàng Chành Xe Nhi Lẻm\n", "description": null, "timestamp": null, "begin": null, "end": null, "altitudeMode": null, "tessellate": -1, "extrude": 0, "visibility": -1, "drawOrder": null, "icon": null }, "geometry": { "type": "Point", "coordinates": [ 105.767562403200102, 10.026062486265131, 0.0 ] } },
{ "type": "Feature", "properties": { "Name": "Chành Xe Kiệt\n", "description": null, "timestamp": null, "begin": null, "end": null, "altitudeMode": null, "tessellate": -1, "extrude": 0, "visibility": -1, "drawOrder": null, "icon": null }, "geometry": { "type": "Point", "coordinates": [ 105.787061405590805, 10.031062219335389, 0.0 ] } },
{ "type": "Feature", "properties": { "Name": "Chành Xe Châu Đốc An Giang\n", "description": null, "timestamp": null, "begin": null, "end": null, "altitudeMode": null, "tessellate": -1, "extrude": 0, "visibility": -1, "drawOrder": null, "icon": null }, "geometry": { "type": "Point", "coordinates": [ 105.764687972990899, 10.04481190794986, 0.0 ] } },
{ "type": "Feature", "properties": { "Name": "Công ty Tô Châu\n", "description": null, "timestamp": null, "begin": null, "end": null, "altitudeMode": null, "tessellate": -1, "extrude": 0, "visibility": -1, "drawOrder": null, "icon": null }, "geometry": { "type": "Point", "coordinates": [ 105.779312500033498, 10.04481250030266, 0.0 ] } },
{ "type": "Feature", "properties": { "Name": "Chành xe tải Hà Hùng (Cần Thơ,  Phụng Hiệp)\n", "description": null, "timestamp": null, "begin": null, "end": null, "altitudeMode": null, "tessellate": -1, "extrude": 0, "visibility": -1, "drawOrder": null, "icon": null }, "geometry": { "type": "Point", "coordinates": [ 105.781562500489301, 10.04656250020507, 0.0 ] } },
{ "type": "Feature", "properties": { "Name": "Bến tàu đi Chợ Nổi\n", "description": null, "timestamp": null, "begin": null, "end": null, "altitudeMode": null, "tessellate": -1, "extrude": 0, "visibility": -1, "drawOrder": null, "icon": null }, "geometry": { "type": "Point", "coordinates": [ 105.748687500112297, 10.007562499650721, 0.0 ] } },
{ "type": "Feature", "properties": { "Name": "Bến phà Xóm Chài\n", "description": null, "timestamp": null, "begin": null, "end": null, "altitudeMode": null, "tessellate": -1, "extrude": 0, "visibility": -1, "drawOrder": null, "icon": null }, "geometry": { "type": "Point", "coordinates": [ 105.788276198278993, 10.03066631531088, 0.0 ] } },
{ "type": "Feature", "properties": { "Name": "Bến tàu cao tốc Côn Đảo Express - Ninh Kiều Cần Thơ\n", "description": null, "timestamp": null, "begin": null, "end": null, "altitudeMode": null, "tessellate": -1, "extrude": 0, "visibility": -1, "drawOrder": null, "icon": null }, "geometry": { "type": "Point", "coordinates": [ 105.788434758551205, 10.03154331332259, 0.0 ] } },
{ "type": "Feature", "properties": { "Name": "Bến tàu cao tốc Côn Đảo Express - Bến Ninh Kiều 1 - Cần Thơ\n", "description": null, "timestamp": null, "begin": null, "end": null, "altitudeMode": null, "tessellate": -1, "extrude": 0, "visibility": -1, "drawOrder": null, "icon": null }, "geometry": { "type": "Point", "coordinates": [ 105.788558941660696, 10.03204826718555, 0.0 ] } },
{ "type": "Feature", "properties": { "Name": "Vé tàu Côn Đảo Express Cần Thơ-Côn Đảo\n", "description": null, "timestamp": null, "begin": null, "end": null, "altitudeMode": null, "tessellate": -1, "extrude": 0, "visibility": -1, "drawOrder": null, "icon": null }, "geometry": { "type": "Point", "coordinates": [ 105.7881033684546, 10.03206249999708, 0.0 ] } },
{ "type": "Feature", "properties": { "Name": "Bến Tàu đi Chợ Nổi\n", "description": null, "timestamp": null, "begin": null, "end": null, "altitudeMode": null, "tessellate": -1, "extrude": 0, "visibility": -1, "drawOrder": null, "icon": null }, "geometry": { "type": "Point", "coordinates": [ 105.788062499922503, 10.032062500451291, 0.0 ] } },
{ "type": "Feature", "properties": { "Name": "Bến Tàu Du Lịch Số 1 Bến Ninh Kiều \n", "description": null, "timestamp": null, "begin": null, "end": null, "altitudeMode": null, "tessellate": -1, "extrude": 0, "visibility": -1, "drawOrder": null, "icon": null }, "geometry": { "type": "Point", "coordinates": [ 105.788426592101203, 10.032305227844979, 0.0 ] } },
{ "type": "Feature", "properties": { "Name": "Tàu Tham Quan Chợ Nổi Cái Răng ( Bến Ninh Kiều )\n", "description": null, "timestamp": null, "begin": null, "end": null, "altitudeMode": null, "tessellate": -1, "extrude": 0, "visibility": -1, "drawOrder": null, "icon": null }, "geometry": { "type": "Point", "coordinates": [ 105.788312499606704, 10.032687500080639, 0.0 ] } },
{ "type": "Feature", "properties": { "Name": "Bến Tàu Chợ Nổi Cần Thơ\n", "description": null, "timestamp": null, "begin": null, "end": null, "altitudeMode": null, "tessellate": -1, "extrude": 0, "visibility": -1, "drawOrder": null, "icon": null }, "geometry": { "type": "Point", "coordinates": [ 105.788562464568002, 10.03343739377703, 0.0 ] } },
{ "type": "Feature", "properties": { "Name": "Bến Tàu Khách Du Lịch Cần Thơ\n", "description": null, "timestamp": null, "begin": null, "end": null, "altitudeMode": null, "tessellate": -1, "extrude": 0, "visibility": -1, "drawOrder": null, "icon": null }, "geometry": { "type": "Point", "coordinates": [ 105.788687499993699, 10.0336874994893, 0.0 ] } },
{ "type": "Feature", "properties": { "Name": "Bến tàu du lịch Hawon\n", "description": null, "timestamp": null, "begin": null, "end": null, "altitudeMode": null, "tessellate": -1, "extrude": 0, "visibility": -1, "drawOrder": null, "icon": null }, "geometry": { "type": "Point", "coordinates": [ 105.792559407592904, 10.046552226567441, 0.0 ] } },
{ "type": "Feature", "properties": { "Name": "Bến Tàu Du Lịch Cồn Sơn\n", "description": null, "timestamp": null, "begin": null, "end": null, "altitudeMode": null, "tessellate": -1, "extrude": 0, "visibility": -1, "drawOrder": null, "icon": null }, "geometry": { "type": "Point", "coordinates": [ 105.764524734530198, 10.06829181927392, 0.0 ] } },
{ "type": "Feature", "properties": { "Name": "Hùng Cường Cần Thơ (Phòng hàng)\n", "description": null, "timestamp": null, "begin": null, "end": null, "altitudeMode": null, "tessellate": -1, "extrude": 0, "visibility": -1, "drawOrder": null, "icon": null }, "geometry": { "type": "Point", "coordinates": [ 105.761937499976497, 10.02406250027531, 0.0 ] } },
{ "type": "Feature", "properties": { "Name": "Công ty Cổ Phần Vận Tải Sài Gòn\n", "description": null, "timestamp": null, "begin": null, "end": null, "altitudeMode": null, "tessellate": -1, "extrude": 0, "visibility": -1, "drawOrder": null, "icon": null }, "geometry": { "type": "Point", "coordinates": [ 105.777687499900097, 10.055937499557441, 0.0 ] } },
{ "type": "Feature", "properties": { "Name": "Chành xe Tiến Phát Cần Thơ\n", "description": null, "timestamp": null, "begin": null, "end": null, "altitudeMode": null, "tessellate": -1, "extrude": 0, "visibility": -1, "drawOrder": null, "icon": null }, "geometry": { "type": "Point", "coordinates": [ 105.777687500344499, 10.014940073087139, 0.0 ] } },
{ "type": "Feature", "properties": { "Name": "Công Ty Cổ Phần Vận Tải Sài Gòn - Đại lý Ô Môn\n", "description": null, "timestamp": null, "begin": null, "end": null, "altitudeMode": null, "tessellate": -1, "extrude": 0, "visibility": -1, "drawOrder": null, "icon": null }, "geometry": { "type": "Point", "coordinates": [ 105.621937564014502, 10.11193745988991, 0.0 ] } },
{ "type": "Feature", "properties": { "Name": "Phương Trang Cần Thơ\n", "description": null, "timestamp": null, "begin": null, "end": null, "altitudeMode": null, "tessellate": -1, "extrude": 0, "visibility": -1, "drawOrder": null, "icon": null }, "geometry": { "type": "Point", "coordinates": [ 105.804312500265794, 9.999187499676751, 0.0 ] } },
{ "type": "Feature", "properties": { "Name": "Công Ty Cổ phần Bến Xe Tàu Phà Cần Thơ\n", "description": null, "timestamp": null, "begin": null, "end": null, "altitudeMode": null, "tessellate": -1, "extrude": 0, "visibility": -1, "drawOrder": null, "icon": null }, "geometry": { "type": "Point", "coordinates": [ 105.760937500117706, 10.02418749996594, 0.0 ] } },
{ "type": "Feature", "properties": { "Name": "Chành Xe Thành Hà Tiên, Tuyến Cần Thơ - Phú Quốc \n", "description": null, "timestamp": null, "begin": null, "end": null, "altitudeMode": null, "tessellate": -1, "extrude": 0, "visibility": -1, "drawOrder": null, "icon": null }, "geometry": { "type": "Point", "coordinates": [ 105.779439110169903, 10.013810813007851, 0.0 ] } },
{ "type": "Feature", "properties": { "Name": "Chành xe Thuận Phát\n", "description": null, "timestamp": null, "begin": null, "end": null, "altitudeMode": null, "tessellate": -1, "extrude": 0, "visibility": -1, "drawOrder": null, "icon": null }, "geometry": { "type": "Point", "coordinates": [ 105.767188245776694, 10.041687351072531, 0.0 ] } },
{ "type": "Feature", "properties": { "Name": "Chành Xe Kiệt\n", "description": null, "timestamp": null, "begin": null, "end": null, "altitudeMode": null, "tessellate": -1, "extrude": 0, "visibility": -1, "drawOrder": null, "icon": null }, "geometry": { "type": "Point", "coordinates": [ 105.7644374998101, 10.044437499732901, 0.0 ] } },
{ "type": "Feature", "properties": { "Name": "Doanh nghiệp tư nhân Dịch vụ Vận Chuyển Hàng Hóa Thiên Minh\n", "description": null, "timestamp": null, "begin": null, "end": null, "altitudeMode": null, "tessellate": -1, "extrude": 0, "visibility": -1, "drawOrder": null, "icon": null }, "geometry": { "type": "Point", "coordinates": [ 105.779187500444607, 10.044187500099451, 0.0 ] } },
{ "type": "Feature", "properties": { "Name": "Bến đò Cô Bắc - bến tàu du lịch cồn Sơn\n", "description": null, "timestamp": null, "begin": null, "end": null, "altitudeMode": null, "tessellate": -1, "extrude": 0, "visibility": -1, "drawOrder": null, "icon": null }, "geometry": { "type": "Point", "coordinates": [ 105.762562499838097, 10.069812499542589, 0.0 ] } }
]
}
